{
    "type": "FeatureCollection",
    "name": "Artes_visuales_22",
    "crs": {
        "type": "name",
        "properties": {
            "name": "urn:ogc:def:crs:OGC:1.3:CRS84"
        }
    },
    "features": [
        {
            "type": "Feature",
            "properties": {
                "nombre": "Corto Circuito",
                "area": "Artes",
                "categoria": "Artes Visuales",
                "tags": "Instalación"
            },
            "geometry": {
                "type": "Point",
                "coordinates": [
                    -75.695509492471288,
                    4.81704207840717
                ]
            }
        },
        {
            "type": "Feature",
            "properties": {
                "nombre": "Corto Circuito",
                "area": "Artes",
                "categoria": "Artes Visuales",
                "tags": "Instalación"
            },
            "geometry": {
                "type": "Point",
                "coordinates": [
                    -75.696787302565284,
                    4.815947664950858
                ]
            }
        },
        {
            "type": "Feature",
            "properties": {
                "nombre": "Corto Circuito",
                "area": "Artes",
                "categoria": "Artes Visuales",
                "tags": "Instalación"
            },
            "geometry": {
                "type": "Point",
                "coordinates": [
                    -75.69398383111178,
                    4.810112495471956
                ]
            }
        },
        {
            "type": "Feature",
            "properties": {
                "nombre": "Corto Circuito",
                "area": "Artes",
                "categoria": "Artes Visuales",
                "tags": "Instalación"
            },
            "geometry": {
                "type": "Point",
                "coordinates": [
                    -75.698399191289909,
                    4.813610522867181
                ]
            }
        },
        {
            "type": "Feature",
            "properties": {
                "nombre": "Corto Circuito",
                "area": "Artes",
                "categoria": "Artes Visuales",
                "tags": "Instalación"
            },
            "geometry": {
                "type": "Point",
                "coordinates": [
                    -75.696065668745504,
                    4.81669391043615
                ]
            }
        },
        {
            "type": "Feature",
            "properties": {
                "nombre": "Fotourbe",
                "area": "Artes",
                "categoria": "Artes Visuales",
                "tags": "Fotografía"
            },
            "geometry": {
                "type": "Point",
                "coordinates": [
                    -75.691985662187193,
                    4.809392706739668
                ]
            }
        },
        {
            "type": "Feature",
            "properties": {
                "nombre": "Galería MAGA",
                "area": "Artes",
                "categoria": "Artes Visuales",
                "tags": "Instalación"
            },
            "geometry": {
                "type": "Point",
                "coordinates": [
                    -75.689011609725924,
                    4.808752396936018
                ]
            }
        },
        {
            "type": "Feature",
            "properties": {
                "nombre": "Khuyay",
                "area": "Artes",
                "categoria": "Artes Visuales",
                "tags": "Graffiti"
            },
            "geometry": {
                "type": "Point",
                "coordinates": [
                    -75.694547784155446,
                    4.798644396869532
                ]
            }
        },
        {
            "type": "Feature",
            "properties": {
                "nombre": "Reparqueando",
                "area": "Artes",
                "categoria": "Artes Visuales",
                "tags": "Graffiti"
            },
            "geometry": {
                "type": "Point",
                "coordinates": [
                    -75.666403043387064,
                    4.793279224934512
                ]
            }
        },
        {
            "type": "Feature",
            "properties": {
                "nombre": "Reparqueando",
                "area": "Artes",
                "categoria": "Artes Visuales",
                "tags": "Graffiti"
            },
            "geometry": {
                "type": "Point",
                "coordinates": [
                    -75.731937960189669,
                    4.816343695400048
                ]
            }
        },
        {
            "type": "Feature",
            "properties": {
                "nombre": "Taller Javier García",
                "area": "Artes",
                "categoria": "Artes Visuales",
                "tags": "Instalación"
            },
            "geometry": {
                "type": "Point",
                "coordinates": [
                    -75.689016158396385,
                    4.808737453565002
                ]
            }
        },
        {
            "type": "Feature",
            "properties": {
                "nombre": "Taller Jesús Calle",
                "area": "Artes",
                "categoria": "Artes Visuales",
                "tags": "Instalación"
            },
            "geometry": {
                "type": "Point",
                "coordinates": [
                    -75.688809198408919,
                    4.809180918127098
                ]
            }
        }
    ]
}